,City,Lat,Lng,Max Temp,Humidity,Cloudiness,Wind Speed,Country,Date
0,dubai,25.2582,55.3047,95.29,12,0,4.61,AE,1648189073
1,puerto ayora,-0.7393,-90.3518,77.86,82,85,6.22,EC,1648189257
2,saint-philippe,-21.3585,55.7679,85.59,75,17,8.01,RE,1648189258
3,tuktoyaktuk,69.4541,-133.0374,-14.82,94,5,11.59,CA,1648189258
4,chern,53.4523,36.9145,33.04,96,100,3.74,RU,1648189259
5,alexandroupoli,40.8475,25.8744,40.82,81,0,3.44,GR,1648189260
6,kapaa,22.0752,-159.319,75.18,88,100,20.71,US,1648188996
7,karratha,-20.7377,116.8463,92.39,46,59,12.15,AU,1648189261
8,la ronge,55.1001,-105.2842,14.25,62,100,17.27,CA,1648189262
9,cape town,-33.9258,18.4232,67.12,68,20,20.71,ZA,1648189202
10,provideniya,64.3833,-173.3,5.49,93,83,7.58,RU,1648189264
11,cherskiy,68.75,161.3,12.31,95,100,12.55,RU,1648189265
12,praia,14.9215,-23.5087,66.74,72,40,16.11,CV,1648189265
13,hermanus,-34.4187,19.2345,58.8,69,100,16.04,ZA,1648189266
14,yellowknife,62.456,-114.3525,-12.48,64,0,8.05,CA,1648189200
15,upernavik,72.7868,-56.1549,8.69,76,100,4.94,GL,1648189267
16,ambilobe,-13.2,49.05,81.7,80,100,1.59,MG,1648189268
17,paamiut,61.994,-49.6678,12.7,66,1,7.38,GL,1648189269
18,ushuaia,-54.8,-68.3,51.46,50,40,10.36,AR,1648188982
19,nikolskoye,59.7035,30.7861,39.87,99,100,4.52,RU,1648189271
20,hilo,19.7297,-155.09,74.93,78,40,8.05,US,1648189271
21,paita,-5.0892,-81.1144,72.9,71,94,9.84,PE,1648189273
22,bluff,-46.6,168.3333,60.8,79,12,9.64,NZ,1648189273
23,jerome,42.7241,-114.5186,52.63,62,0,3.44,US,1648189274
24,brandon,27.9378,-82.2859,64.72,86,100,4.0,US,1648189275
25,rikitea,-23.1203,-134.9692,79.59,72,71,16.84,PF,1648189276
26,torbay,47.6666,-52.7314,27.27,81,40,21.85,CA,1648189277
27,tasiilaq,65.6145,-37.6368,19.56,67,100,7.96,GL,1648189278
28,port elizabeth,-33.918,25.5701,63.1,97,75,3.44,ZA,1648189279
29,aklavik,68.2191,-135.0107,-8.07,97,42,11.68,CA,1648189279
30,vaini,-21.2,-175.2,78.96,83,40,6.91,TO,1648189280
31,bredasdorp,-34.5322,20.0403,63.54,63,100,11.99,ZA,1648189281
32,pisco,-13.7,-76.2167,65.01,100,0,10.36,PE,1648189282
33,lerik,38.7726,48.4128,38.84,70,46,2.84,AZ,1648189283
34,umm kaddadah,13.6017,26.6876,65.53,16,98,22.82,SD,1648189283
35,carnarvon,-24.8667,113.6333,91.47,58,79,19.57,AU,1648189284
36,mataura,-46.1927,168.8643,61.05,72,18,4.32,NZ,1648189285
37,punta arenas,-53.15,-70.9167,51.91,50,0,17.27,CL,1648189286
38,ponta do sol,32.6667,-17.1,62.01,73,54,5.75,PT,1648189286
39,senador jose porfirio,-2.5908,-51.9542,72.23,98,72,2.89,BR,1648189287
40,ancud,-41.8697,-73.8203,52.23,91,43,5.35,CL,1648189288
41,albany,42.6001,-73.9662,41.18,93,100,2.86,US,1648189191
42,avarua,-21.2078,-159.775,75.25,94,75,4.61,CK,1648189289
43,arona,28.0996,-16.681,54.12,61,40,5.75,ES,1648189290
44,guatire,10.4762,-66.5427,76.21,97,72,2.19,VE,1648189291
45,kabo,7.6994,18.629,78.75,61,96,2.93,CF,1648189292
46,nantucket,41.2835,-70.0995,54.14,98,100,16.11,US,1648189033
47,busselton,-33.65,115.3333,84.96,28,78,4.97,AU,1648189293
48,champerico,14.3,-91.9167,81.3,74,84,1.34,GT,1648189294
49,verkhnyaya inta,65.9811,60.3094,12.54,92,100,13.29,RU,1648189295
50,chateau-gontier,47.8333,-0.7,42.96,89,0,8.95,FR,1648189013
51,hobart,-42.8794,147.3294,72.05,49,20,10.36,AU,1648189192
52,saldanha,-33.0117,17.9442,60.85,82,0,14.61,ZA,1648189296
53,dikson,73.5069,80.5464,12.7,88,92,17.16,RU,1648189297
54,bafoulabe,13.8065,-10.8321,82.63,15,9,5.91,ML,1648189298
55,barrow,71.2906,-156.7887,-2.18,71,0,14.97,US,1648189299
56,bengkulu,-3.8004,102.2655,85.5,62,98,8.72,ID,1648189300
57,aksu,41.1231,80.2644,45.77,58,100,2.62,CN,1648189301
58,airai,-8.9266,125.4092,70.83,75,46,1.92,TL,1648189302
59,nuuk,64.1835,-51.7216,18.21,67,20,1.14,GL,1648189302
60,tahe,52.3333,124.7333,33.75,49,100,6.2,CN,1648189303
61,gat,31.61,34.7642,49.41,100,86,15.41,IL,1648189304
62,kashi,39.4547,75.9797,51.01,37,75,6.71,CN,1648189305
63,coquimbo,-29.9533,-71.3436,62.38,77,0,2.93,CL,1648189305
64,spasskoye,44.6108,132.7969,43.63,85,92,13.85,RU,1648189306
65,jamestown,42.097,-79.2353,39.72,65,0,4.61,US,1648188821
66,aykhal,66.0,111.5,18.18,62,99,6.46,RU,1648189308
67,trat,12.5,102.5,92.91,48,35,10.71,TH,1648189309
68,waingapu,-9.6567,120.2641,85.69,71,31,3.58,ID,1648189310
69,goya,-29.14,-59.2626,54.27,66,0,6.93,AR,1648189310
70,naklo nad notecia,53.1421,17.6018,36.45,63,0,4.92,PL,1648189311
71,bonthe,7.5264,-12.505,75.94,92,5,2.73,SL,1648189312
72,danshui,22.7984,114.4672,69.55,96,100,3.83,CN,1648189313
73,karpogory,64.0019,44.4451,21.16,75,29,4.68,RU,1648189314
74,saskylakh,71.9167,114.0833,2.14,91,100,4.34,RU,1648189315
75,la paz centro,12.34,-86.6753,80.26,59,43,9.78,NI,1648189316
76,picton,-34.1833,150.6,69.89,87,97,6.53,AU,1648189317
77,geraldton,-28.7667,114.6,90.01,37,100,12.66,AU,1648189318
78,grand gaube,-20.0064,57.6608,86.38,71,23,8.99,MU,1648189318
79,katobu,-4.9408,122.5276,87.1,62,76,6.22,ID,1648189319
80,blagoyevo,63.3667,47.9167,19.02,81,17,7.92,RU,1648189320
81,suratgarh,29.3167,73.9,94.66,9,0,4.23,IN,1648189321
82,castro,-24.7911,-50.0119,64.22,96,100,4.76,BR,1648189321
83,portland,45.5234,-122.6762,54.25,82,20,6.91,US,1648188712
84,hohhot,40.8106,111.6522,52.09,11,0,15.66,CN,1648189104
85,silistra,44.1167,27.2667,45.91,9,92,7.74,BG,1648189323
86,vila franca do campo,37.7167,-25.4333,59.41,83,99,17.63,PT,1648189324
87,bethel,41.3712,-73.414,43.16,93,100,4.0,US,1648189123
88,lasa,46.6166,10.7002,37.36,72,1,2.21,IT,1648189326
89,vardo,70.3705,31.1107,26.46,73,100,17.96,NO,1648189326
90,wamba,8.9333,8.6,76.5,22,92,1.77,NG,1648189327
91,pachino,36.7186,15.0907,52.09,62,0,7.25,IT,1648189328
92,san luis,-33.295,-66.3356,46.11,48,0,3.33,AR,1648189329
93,talalora,11.5293,124.8362,85.98,70,90,6.64,PH,1648189330
94,namibe,-15.1961,12.1522,72.61,83,43,7.27,AO,1648189331
95,khatanga,71.9667,102.5,6.19,87,100,2.3,RU,1648189331
96,tangerang,-6.1781,106.63,97.52,62,40,11.99,ID,1648189332
97,hithadhoo,-0.6,73.0833,83.97,70,24,18.79,MV,1648189333
98,port alfred,-33.5906,26.891,65.73,84,99,17.78,ZA,1648189334
99,fairbanks,64.8378,-147.7164,24.76,50,75,0.0,US,1648189323
100,butaritari,3.0707,172.7902,80.89,71,62,10.25,KI,1648189335
101,kahului,20.8947,-156.47,75.22,64,20,17.27,US,1648189336
102,morant bay,17.8815,-76.4093,78.42,80,43,13.22,JM,1648189336
103,salalah,17.0151,54.0924,80.69,69,0,4.61,OM,1648189338
104,hazorasp,41.3194,61.0742,46.24,46,100,27.11,UZ,1648189338
105,mokrousovo,55.8103,66.7653,32.88,92,100,18.37,RU,1648189339
106,orlik,52.5178,99.825,17.71,61,94,4.9,RU,1648189281
107,constitucion,-35.3333,-72.4167,52.54,68,0,6.69,CL,1648189340
108,kaitangata,-46.2817,169.8464,57.45,69,23,3.62,NZ,1648189341
109,innisfail,-17.5333,146.0333,79.39,82,100,7.49,AU,1648189261
110,ribeira grande,38.5167,-28.7,60.35,93,100,26.91,PT,1648189342
111,zhigansk,66.7697,123.3711,14.43,78,74,4.99,RU,1648189343
112,thompson,55.7435,-97.8558,12.36,85,100,17.27,CA,1648189344
113,hamilton,39.1834,-84.5333,43.09,74,0,4.61,US,1648189202
114,anadyr,64.75,177.4833,5.5,84,20,2.24,RU,1648189345
115,bambous virieux,-20.3428,57.7575,86.22,70,40,8.05,MU,1648189346
116,lata,40.1629,-8.3327,56.07,88,98,5.95,PT,1648189347
117,matara,5.9485,80.5353,84.09,63,56,7.16,LK,1648189347
118,hovd,48.0056,91.6419,32.99,20,27,26.64,MN,1648189349
119,kununurra,-15.7667,128.7333,96.78,41,47,5.75,AU,1648189349
120,samarai,-10.6167,150.6667,86.36,69,79,4.59,PG,1648189350
121,arraial do cabo,-22.9661,-42.0278,75.11,88,2,23.09,BR,1648189351
122,new norfolk,-42.7826,147.0587,71.71,48,72,4.0,AU,1648189352
123,ourem,39.6417,-8.5919,54.84,88,90,11.52,PT,1648189352
124,nemuro,43.3236,145.575,34.68,79,8,3.24,JP,1648189353
125,bandarbeyla,9.4942,50.8122,80.56,60,27,10.31,SO,1648189354
126,buluang,13.3068,123.3425,88.75,59,55,1.32,PH,1648189355
127,inirida,3.8653,-67.9239,75.56,88,47,2.68,CO,1648189355
128,mahebourg,-20.4081,57.7,86.25,70,40,8.05,MU,1648189356
129,honningsvag,70.9821,25.9704,28.15,59,20,10.36,NO,1648189357
130,sibolga,1.7427,98.7792,87.19,56,33,5.59,ID,1648189358
131,qaanaaq,77.484,-69.3632,-13.4,59,26,8.03,GL,1648189358
132,shirokiy,49.758,129.523,32.43,100,100,13.06,RU,1648189359
133,san andres,12.5847,-81.7006,80.62,69,20,11.5,CO,1648189360
134,luderitz,-26.6481,15.1594,63.79,78,0,12.71,NA,1648189361
135,sao filipe,14.8961,-24.4956,69.12,71,73,9.17,CV,1648189362
136,kodiak,57.79,-152.4072,35.11,93,100,5.75,US,1648189363
137,san cristobal,7.7669,-72.225,67.82,67,37,1.41,VE,1648189363
138,caravelas,-17.7125,-39.2481,72.88,94,3,1.97,BR,1648189364
139,mazyr,52.0495,29.2456,35.62,87,64,5.19,BY,1648189365
140,bredy,52.4153,60.3411,31.05,89,88,14.9,RU,1648189366
141,gizo,-8.103,156.8419,83.93,72,88,3.15,SB,1648189366
142,kavieng,-2.5744,150.7967,85.26,64,90,6.17,PG,1648189367
143,cockburn town,21.4612,-71.1419,77.92,77,2,24.63,TC,1648189247
144,horqueta,-23.3428,-57.0597,71.76,99,100,5.73,PY,1648189368
145,gornopravdinsk,60.05,69.9,32.61,99,100,14.16,RU,1648189369
146,taltal,-25.4,-70.4833,63.1,86,9,1.05,CL,1648189220
147,puerto escondido,15.85,-97.0667,78.49,82,60,5.17,MX,1648189370
148,norman wells,65.282,-126.8329,-2.16,65,20,9.22,CA,1648189371
149,sakakah,29.9697,40.2064,53.17,46,0,11.41,SA,1648189372
150,puerto del rosario,28.5004,-13.8627,62.35,72,0,8.05,ES,1648189372
151,chuy,-33.6971,-53.4616,54.28,74,5,8.32,UY,1648189374
152,atuona,-9.8,-139.0333,79.38,80,86,20.2,PF,1648189374
153,san ramon,37.7799,-121.978,53.38,86,0,5.75,US,1648189375
154,kasama,-10.2129,31.1808,66.22,88,75,3.69,ZM,1648189376
155,stornoway,58.2093,-6.3865,46.92,93,75,2.3,GB,1648189377
156,nanortalik,60.1432,-45.2371,26.02,69,100,5.19,GL,1648189377
157,husavik,66.0449,-17.3389,21.96,88,100,5.55,IS,1648189378
158,east london,-33.0153,27.9116,63.54,100,100,10.36,ZA,1648189215
159,novovarshavka,54.1721,74.6946,32.04,92,98,16.46,RU,1648189379
160,humboldt,40.6665,-123.9178,41.59,93,97,0.47,US,1648189111
161,nouadhibou,20.931,-17.0347,60.78,82,0,21.85,MR,1648189381
162,vestmannaeyjar,63.4427,-20.2734,42.13,88,100,22.15,IS,1648189382
163,omboue,-1.5746,9.2618,78.76,88,82,4.16,GA,1648189382
164,chadan,51.2833,91.5833,25.77,59,97,15.52,RU,1648189383
165,auki,-8.7676,160.7034,81.46,83,77,3.42,SB,1648189384
166,kerman,30.2832,57.0788,73.26,16,0,11.5,IR,1648189136
167,khandyga,62.6667,135.6,21.97,80,49,2.26,RU,1648189386
168,zyryanka,65.75,150.85,10.9,83,99,4.56,RU,1648189387
169,adrar,20.5022,-10.0711,59.47,36,0,9.84,MR,1648189388
170,taitung,22.7583,121.1444,82.67,69,40,9.22,TW,1648189389
171,belaya gora,68.5333,146.4167,8.44,88,94,3.27,RU,1648189390
172,bad doberan,54.1071,11.9005,43.99,91,1,6.8,DE,1648189391
173,sitka,57.0531,-135.33,44.49,61,100,16.11,US,1648189392
174,tuatapere,-46.1333,167.6833,60.98,78,20,7.0,NZ,1648189392
175,riyadh,24.6877,46.7219,64.54,20,0,8.1,SA,1648189393
176,esperance,-33.8667,121.9,82.24,47,0,13.53,AU,1648189394
177,dallas,32.7668,-96.7836,53.89,50,0,5.75,US,1648189364
178,benjamin hill,30.1667,-111.1,64.35,13,0,7.47,MX,1648189395
179,buin,-33.7333,-70.75,68.05,23,0,3.09,CL,1648189396
180,cayenne,4.9333,-52.3333,79.09,1,75,3.44,GF,1648189397
181,usak,38.5,29.4167,26.58,54,0,1.79,TR,1648189397
182,loano,44.133,8.2513,56.3,42,16,4.0,IT,1648189398
183,banjarmasin,-3.3244,114.591,86.14,77,99,1.59,ID,1648189399
184,baykit,61.67,96.37,26.67,75,89,2.98,RU,1648189400
185,cabo san lucas,22.8909,-109.9124,69.51,76,97,9.89,MX,1648189400
186,bo rai,12.5728,102.5371,92.77,50,71,8.14,TH,1648189401
187,hofn,64.2539,-15.2082,33.89,88,100,10.65,IS,1648189403
188,ahipara,-35.1667,173.1667,65.66,81,80,14.99,NZ,1648189403
189,natal,-5.795,-35.2094,75.85,100,0,3.44,BR,1648189156
190,narsaq,60.9167,-46.05,37.62,71,100,7.56,GL,1648189405
191,karatau,43.1667,70.4667,42.78,75,90,9.55,KZ,1648189406
192,lebu,-37.6167,-73.65,54.79,80,1,20.98,CL,1648189407
193,bagrami,34.4938,69.2743,62.11,17,0,3.4,AF,1648189408
194,soyo,-6.1349,12.3689,79.7,86,88,6.2,AO,1648189409
195,carutapera,-1.195,-46.02,74.84,95,100,4.23,BR,1648189410
196,urumqi,43.801,87.6005,41.95,42,0,4.47,CN,1648189411
197,aguimes,27.9054,-15.4461,57.83,55,20,1.14,ES,1648189411
198,vologda,59.2187,39.8886,23.85,77,10,9.01,RU,1648189412
199,longyearbyen,78.2186,15.6401,-2.36,78,40,5.75,SJ,1648189340
200,springbok,-29.6643,17.8865,60.62,64,0,1.63,ZA,1648189414
201,rawson,-43.3002,-65.1023,55.63,70,0,5.19,AR,1648189415
202,marabba,12.35,32.1833,75.97,13,2,16.11,SD,1648189415
203,sugar hill,34.1065,-84.0335,48.7,74,0,0.0,US,1648189416
204,teguldet,57.3064,88.1667,26.96,85,100,9.55,RU,1648189417
205,nome,64.5011,-165.4064,17.67,67,0,5.75,US,1648189418
206,wichita falls,33.9137,-98.4934,51.94,38,0,9.22,US,1648189333
207,clarence town,-32.5833,151.7833,73.85,90,99,6.76,AU,1648189419
208,tarko-sale,64.9225,77.785,19.06,88,100,15.77,RU,1648189420
209,faanui,-16.4833,-151.75,81.54,72,59,12.28,PF,1648189420
210,kavaratti,10.5669,72.642,83.05,64,3,4.74,IN,1648189421
211,powassan,46.0334,-79.3496,33.19,96,100,7.4,CA,1648189423
212,huainan,32.6264,116.9969,56.46,94,100,11.41,CN,1648189424
213,umm lajj,25.0213,37.2685,64.9,41,0,15.26,SA,1648189425
214,sandwick,60.0,-1.25,46.22,100,100,20.71,GB,1648189425
215,codrington,-38.2667,141.9667,66.54,53,11,10.31,AU,1648189427
216,guspini,39.5406,8.6294,53.98,89,43,7.76,IT,1648189428
217,la cumbre,-30.982,-64.4914,45.23,82,0,3.02,AR,1648189429
218,kushmurun,52.4503,64.6311,33.13,90,97,15.14,KZ,1648189429
219,nizhniy mamon,50.1937,40.5083,33.1,68,1,0.38,RU,1648189430
220,port said,31.2565,32.2841,55.87,64,66,17.78,EG,1648189432
221,manokwari,-0.8667,134.0833,79.54,83,100,10.51,ID,1648189433
222,yelatma,54.9675,41.7508,31.3,98,83,3.58,RU,1648189433
223,tautira,-17.7333,-149.15,80.91,75,58,14.9,PF,1648189434
224,doha,25.2867,51.5333,77.31,55,10,18.41,QA,1648189408
225,roald,62.5833,6.1333,50.76,100,40,26.46,NO,1648189435
226,uspenka,48.3903,39.1619,40.53,49,1,7.94,UA,1648189437
227,hervey bay,-25.2986,152.8535,82.02,57,9,5.99,AU,1648189343
228,fafe,41.4542,-8.168,57.4,74,100,8.99,PT,1648189438
229,cap malheureux,-19.9842,57.6142,86.47,71,18,8.99,MU,1648189439
230,grindavik,63.8424,-22.4338,35.55,100,100,18.41,IS,1648189440
231,touros,-5.1989,-35.4608,76.5,90,89,7.16,BR,1648189263
232,watertown,42.3709,-71.1828,42.3,95,100,14.97,US,1648189286
233,meulaboh,4.1363,96.1285,85.51,68,15,5.12,ID,1648189441
234,pevek,69.7008,170.3133,-3.86,99,99,0.2,RU,1648189442
235,kloulklubed,7.0419,134.2556,73.9,89,100,8.88,PW,1648189443
236,flin flon,54.7682,-101.865,14.29,82,100,17.11,CA,1648189261
237,kholtoson,50.2981,103.3097,25.2,35,11,10.36,RU,1648189444
238,marsa matruh,31.3525,27.2453,56.37,56,5,17.56,EG,1648189446
239,vila velha,-20.3297,-40.2925,75.15,94,75,2.3,BR,1648189446
240,pitimbu,-7.4706,-34.8086,75.79,83,90,6.62,BR,1648189447
241,lavrentiya,65.5833,-171.0,-1.05,94,91,6.44,RU,1648189448
242,tres arroyos,-38.3739,-60.2798,61.23,96,100,19.62,AR,1648189448
243,asau,46.4333,26.4,44.96,49,4,4.12,RO,1648189449
244,san quintin,30.4833,-115.95,61.39,75,46,7.09,MX,1648189450
245,klaksvik,62.2266,-6.589,45.52,95,100,11.77,FO,1648189451
246,shaunavon,49.6501,-108.4181,28.18,60,35,8.81,CA,1648189451
247,kuytun,54.3419,101.5036,25.65,75,100,4.0,RU,1648189452
248,caconda,-13.7333,15.0667,60.22,92,69,1.9,AO,1648189453
249,belmonte,-15.8631,-38.8828,75.22,87,12,1.1,BR,1648189454
250,chicama,-7.8447,-79.1469,64.94,77,95,5.73,PE,1648189455
251,gao,16.6362,1.637,78.6,10,75,13.49,ML,1648189455
252,bereda,43.2686,-7.5406,45.57,100,77,2.42,ES,1648189456
253,qianan,44.9932,124.0581,49.42,33,39,13.53,CN,1648189457
254,tura,25.5198,90.2201,87.12,44,71,8.28,IN,1648189458
255,mar del plata,-38.0023,-57.5575,58.08,97,100,8.99,AR,1648189459
256,okhotsk,59.3833,143.3,20.21,76,16,5.93,RU,1648189460
257,turukhansk,65.8167,87.9833,22.32,86,95,15.19,RU,1648189460
258,tiksi,71.6872,128.8694,2.41,90,95,2.39,RU,1648189461
259,nishihara,26.1842,127.7558,74.48,74,100,24.16,JP,1648189462
260,bilibino,68.0546,166.4372,18.99,96,100,3.71,RU,1648189463
261,surt,31.2089,16.5887,52.0,66,0,10.63,LY,1648189464
262,roros,62.5747,11.3842,40.84,75,75,11.5,NO,1648189464
263,pelym,61.0108,61.9978,23.05,75,77,15.5,RU,1648189465
264,victoria,22.2855,114.1577,80.65,88,84,20.0,HK,1648189266
265,georgetown,5.4112,100.3354,91.33,74,20,10.36,MY,1648189261
266,yarim,14.298,44.3779,64.0,31,37,9.22,YE,1648189467
267,micheweni,-4.9667,39.8333,85.01,68,22,8.23,TZ,1648189468
268,campos,-21.75,-41.3,70.41,96,3,5.66,BR,1648189468
269,ola,59.5833,151.2833,14.31,90,92,4.7,RU,1648189469
270,broken hill,-31.95,141.4333,75.29,23,0,16.13,AU,1648189470
271,aquiraz,-3.9014,-38.3911,78.89,88,94,4.85,BR,1648189471
272,port hardy,50.6996,-127.4199,46.4,87,100,2.3,CA,1648189472
273,cherepovets,59.1333,37.9,30.02,64,20,4.47,RU,1648189473
274,maku,39.2911,44.4521,32.2,58,26,2.59,IR,1648189474
275,jining,35.405,116.5814,51.96,92,100,13.62,CN,1648189310
276,cururupu,-1.8283,-44.8683,72.66,98,86,1.41,BR,1648189475
277,ilulissat,69.2167,-51.1,19.42,73,40,8.05,GL,1648189476
278,palmer,42.1584,-72.3287,41.5,86,100,5.75,US,1648189477
279,orje,59.4802,11.6602,40.35,77,48,5.3,NO,1648189478
280,berdigestyakh,62.0989,126.6992,27.86,78,98,1.74,RU,1648189479
281,sorland,67.667,12.6934,34.97,70,78,8.3,NO,1648189479
282,rabo de peixe,37.8,-25.5833,58.51,82,75,16.11,PT,1648189480
283,santo anastacio,-21.8383,-51.6103,71.96,82,73,2.37,BR,1648189481
284,cozumel,20.5083,-86.9458,74.95,87,96,16.15,MX,1648189416
285,lincoln,40.8,-96.667,35.02,87,0,3.0,US,1648189383
286,abu samrah,35.3029,37.1841,40.89,89,100,6.26,SY,1648189483
287,preobrazheniye,42.9019,133.9064,41.56,94,100,5.32,RU,1648189483
288,neuquen,-38.9516,-68.0591,49.89,81,0,0.0,AR,1648189484
289,muros,42.7762,-9.0603,49.84,77,45,8.81,ES,1648189485
290,cidreira,-30.1811,-50.2056,72.1,85,95,4.85,BR,1648189486
291,shenjiamen,29.9576,122.298,59.16,98,100,28.5,CN,1648189486
292,nyaunglebin,17.95,96.7333,97.41,27,43,6.91,MM,1648189487
293,union,40.6334,-74.2663,45.95,96,100,6.91,US,1648189488
294,yanliang,34.6592,109.2292,61.79,29,100,5.91,CN,1648189489
295,atar,20.5169,-13.0499,61.9,34,0,10.0,MR,1648189490
296,nelson bay,-32.7167,152.15,73.99,71,97,3.0,AU,1648189491
297,lorengau,-2.0226,147.2712,84.34,66,100,1.5,PG,1648189491
298,cape coast,5.1053,-1.2466,79.61,87,93,6.38,GH,1648189255
299,predivinsk,57.0669,93.4378,30.0,74,100,9.71,RU,1648189493
300,ikom,5.9667,8.7063,77.2,90,57,0.81,NG,1648189493
301,ulladulla,-35.35,150.4667,70.7,79,84,6.31,AU,1648189494
302,chokurdakh,70.6333,147.9167,-5.85,98,37,3.24,RU,1648189495
303,tilichiki,60.4667,166.1,17.42,94,84,6.29,RU,1648189496
304,vanimo,-2.6741,141.3028,86.07,69,99,9.69,PG,1648189496
305,gari,59.4307,62.3497,25.0,73,100,17.69,RU,1648189497
306,tual,-5.6667,132.75,81.46,76,100,10.83,ID,1648189499
307,ulcinj,41.9294,19.2244,44.82,66,0,5.35,ME,1648189499
308,yulara,-25.2406,130.9889,89.44,27,4,11.5,AU,1648189500
309,wasilla,61.5814,-149.4394,40.98,63,100,20.71,US,1648189501
310,longyan,25.1072,117.0225,66.15,99,100,3.18,CN,1648189502
311,chik,54.9928,82.4311,24.55,85,75,13.42,RU,1648189503
312,sanming,26.2486,117.6186,72.45,87,95,4.18,CN,1648189505
313,shubarshi,48.5872,57.1869,26.47,81,88,4.23,KZ,1648189506
314,dingle,10.9995,122.6711,90.18,54,60,12.37,PH,1648189507
315,taoudenni,22.6783,-3.9836,67.64,26,0,9.17,ML,1648189508
316,vuktyl,63.8567,57.3094,16.56,78,85,16.24,RU,1648189509
317,san patricio,28.017,-97.5169,64.83,57,0,7.74,US,1648189510
318,kemijarvi,66.7131,27.4306,26.08,95,100,7.14,FI,1648189512
319,asfi,32.2994,-9.2372,55.17,76,31,6.51,MA,1648189512
320,imbituba,-28.24,-48.6703,71.82,90,100,3.91,BR,1648189513
321,pemangkat,1.1667,108.9667,86.27,68,84,8.16,ID,1648189514
322,srednekolymsk,67.45,153.6833,9.3,89,100,8.52,RU,1648189515
323,bundaberg,-24.85,152.35,83.21,50,47,8.05,AU,1648189515
324,camacha,33.0833,-16.3333,56.62,82,40,16.11,PT,1648189516
325,kruisfontein,-34.0033,24.7314,60.89,76,100,8.75,ZA,1648189517
326,vidim,56.4088,103.1106,29.16,71,91,7.27,RU,1648189518
327,chumphon,10.3333,98.8333,89.13,53,19,1.86,TH,1648189519
328,berlevag,70.8578,29.0864,26.6,63,40,14.97,NO,1648189520
329,chulman,56.8479,124.9104,27.81,77,100,3.56,RU,1648189521
330,red deer,52.2668,-113.802,28.89,64,0,8.05,CA,1648189521
331,nehe,48.4833,124.8333,35.73,81,95,9.69,CN,1648189522
332,lompoc,34.6391,-120.4579,58.12,93,100,4.61,US,1648189523
333,santa maria,-29.6842,-53.8069,56.08,70,80,6.24,BR,1648189506
334,beni suef,29.0731,31.0979,53.49,54,6,10.69,EG,1648189525
335,huancabamba,-5.2386,-79.4506,60.44,95,99,2.42,PE,1648189525
336,jieshi,22.8134,115.8257,66.94,89,77,8.95,CN,1648189526
337,el cope,8.6167,-80.6,67.23,90,37,7.16,PA,1648189527
338,suez,29.9737,32.5263,55.02,52,9,14.79,EG,1648189528
339,aromashevo,56.8602,68.6375,32.14,95,100,19.1,RU,1648189528
340,mount isa,-20.7333,139.5,98.37,19,94,9.22,AU,1648189530
341,chernyshevskiy,63.0128,112.4714,25.12,77,95,7.38,RU,1648189531
342,aripuana,-9.1667,-60.6333,72.23,99,98,0.72,BR,1648189532
343,bahia blanca,-38.7196,-62.2724,57.7,91,100,24.0,AR,1648189532
344,namatanai,-3.6667,152.4333,84.74,64,48,5.84,PG,1648189533
345,fomboni,-12.28,43.7425,83.66,72,80,4.27,KM,1648189534
346,fare,-16.7,-151.0167,81.27,74,56,14.18,PF,1648189535
347,sawtell,-30.3833,153.1,69.82,88,100,4.61,AU,1648189535
348,coihaique,-45.5752,-72.0662,50.61,76,40,4.61,CL,1648189329
349,den helder,52.9599,4.7593,42.98,96,9,5.01,NL,1648189537
350,chauk,20.8833,94.8167,93.2,30,39,10.96,MM,1648189537
351,kamenka,51.3223,42.7678,30.7,78,0,1.81,RU,1648189538
352,georgiyevka,43.0369,74.7114,44.64,76,40,13.42,KZ,1648189539
353,maryville,35.7565,-83.9705,49.48,65,0,5.75,US,1648189540
354,saint-francois,46.4154,3.9054,35.67,100,1,3.44,FR,1648189540
355,lamas,-6.4167,-76.5333,65.21,99,76,2.3,PE,1648189541
356,skibbereen,51.55,-9.2667,45.12,79,89,6.71,IE,1648189542
357,paysandu,-32.3214,-58.0756,52.61,80,89,18.84,UY,1648189360
358,cabo rojo,18.0866,-67.1457,75.67,82,0,7.7,PR,1648189543
359,shirgaon,19.7,72.7,86.59,46,61,5.37,IN,1648189544
360,bad durrheim,48.0167,8.5333,44.94,68,5,1.79,DE,1648189545
361,buraydah,26.326,43.975,61.25,21,0,9.08,SA,1648189545
362,porto belo,-27.1578,-48.5531,69.26,91,86,5.32,BR,1648189546
363,hasaki,35.7333,140.8333,64.29,43,11,10.33,JP,1648189547
364,olga,43.7444,135.2892,39.97,92,100,8.39,RU,1648189548
365,lekoni,-1.5843,14.2591,78.12,66,57,1.25,GA,1648189548
366,iqaluit,63.7506,-68.5145,10.13,72,75,2.3,CA,1648189549
367,smithers,54.7804,-127.1743,39.52,41,100,4.61,CA,1648189261
368,solnechnyy,50.7214,136.6319,32.38,86,100,3.49,RU,1648189550
369,cabra,37.4725,-4.4421,54.18,75,100,5.14,ES,1648189551
370,barcelona,41.3888,2.159,55.33,70,0,13.8,ES,1648189552
371,sayat,38.7839,63.8803,57.07,42,99,21.05,TM,1648189553
372,sao gabriel da cachoeira,-0.1303,-67.0892,72.07,99,96,1.1,BR,1648189553
373,clyde river,70.4692,-68.5914,-5.57,84,100,27.63,CA,1648189554
374,umea,63.8284,20.2597,33.73,100,100,5.75,SE,1648189331
375,saint-joseph,-21.3667,55.6167,84.58,76,29,5.95,RE,1648189555
376,port lincoln,-34.7333,135.8667,67.08,54,16,12.03,AU,1648189266
377,aksha,50.2814,113.2867,36.27,27,100,7.38,RU,1648189557
378,santa maria da vitoria,-13.3947,-44.1886,70.25,63,9,3.18,BR,1648189558
379,abalak,58.1286,68.5944,31.98,94,100,14.63,RU,1648189559
380,oktyabrskiy,54.4815,53.471,33.4,82,95,12.12,RU,1648189560
381,miraflores,19.2167,-98.8083,57.87,50,5,2.04,MX,1648189561
382,junin,-34.5838,-60.9433,56.43,90,84,22.35,AR,1648189355
383,changji,44.0167,87.3167,45.39,42,0,4.47,CN,1648189563
384,saint anthony,45.0205,-93.218,39.65,86,0,5.75,US,1648189563
385,sarangani,5.4033,125.4636,82.51,76,100,17.98,PH,1648189564
386,ler,8.3018,30.1418,84.94,12,22,11.27,SS,1648189565
387,pijijiapan,15.7011,-93.23,74.8,64,70,12.5,MX,1648189566
388,tiarei,-17.5333,-149.3333,80.62,74,50,13.69,PF,1648189567
389,dondo,-19.6094,34.7431,80.11,79,1,6.67,MZ,1648189567
390,yarega,63.4354,53.5765,19.69,80,96,12.21,RU,1648189568
391,ekibastuz,51.6667,75.3667,31.26,87,52,17.47,KZ,1648189569
392,sao jose da coroa grande,-8.8978,-35.1478,76.33,85,88,4.38,BR,1648189570
393,lazaro cardenas,17.9583,-102.2,69.12,72,1,3.83,MX,1648189571
394,carinhanha,-14.3047,-43.765,69.82,62,7,3.56,BR,1648189571
395,sven,53.1822,34.5511,33.91,91,100,3.49,RU,1648189572
396,msanga,-6.05,36.0333,72.09,76,5,4.7,TZ,1648189573
397,saint-pierre,-21.3393,55.4781,85.68,66,0,9.22,RE,1648189574
398,ionia,42.9873,-85.0711,35.29,97,100,8.05,US,1648189330
399,deep river,46.1001,-77.4995,39.43,98,100,3.06,CA,1648189295
400,pathein,16.7833,94.7333,93.74,38,37,9.51,MM,1648189576
401,hambantota,6.1241,81.1185,89.94,66,40,3.44,LK,1648189576
402,hailar,49.2,119.7,31.59,81,91,8.68,CN,1648189577
403,oriximina,-1.7656,-55.8661,74.32,93,97,3.85,BR,1648189578
404,estrela,-28.0611,-50.9383,57.61,98,96,2.95,BR,1648189579
405,alcala la real,37.4614,-3.923,51.71,73,100,1.99,ES,1648189580
406,abu dhabi,24.4667,54.3667,96.91,19,0,5.75,AE,1648189513
407,tyup,42.7276,78.3648,36.21,84,98,2.8,KG,1648189581
408,los llanos de aridane,28.6585,-17.9182,55.15,63,0,4.61,ES,1648189582
409,luoyang,34.6836,112.4536,54.54,84,100,3.49,CN,1648189583
410,taguatinga,-12.3857,-46.5711,72.41,79,44,1.48,BR,1648189584
411,isa khel,36.6702,68.8443,66.34,39,1,4.34,AF,1648189584
412,sao joao da barra,-21.6403,-41.0511,74.3,90,2,11.72,BR,1648189585
413,chapais,49.7834,-74.8492,31.78,99,100,10.85,CA,1648189520
414,isangel,-19.55,169.2667,79.83,78,85,13.4,VU,1648189587
415,westport,41.1415,-73.3579,44.64,96,100,5.75,US,1648189588
416,atikokan,48.7555,-91.6216,24.24,98,95,4.12,CA,1648189589
417,inyonga,-6.7167,32.0667,69.24,87,27,2.62,TZ,1648189589
418,chabahar,25.2919,60.643,82.11,51,0,2.51,IR,1648189590
419,saint george,37.1041,-113.5841,63.19,27,0,3.0,US,1648189591
420,hobyo,5.3505,48.5268,82.76,71,99,4.41,SO,1648189592
421,padang,-0.9492,100.3543,87.85,52,81,6.76,ID,1648189593
422,filingue,14.3521,3.3168,79.57,14,88,5.73,NE,1648189594
423,wageningen,51.9667,5.6667,41.11,89,0,5.46,NL,1648189594
424,vallenar,-28.5708,-70.7581,64.22,66,0,1.45,CL,1648189595
425,olinda,-8.0089,-34.8553,74.93,94,40,1.14,BR,1648189472
426,santa maria del oro,25.9333,-105.3667,47.16,12,0,2.8,MX,1648189596
427,mogadishu,2.0371,45.3438,84.07,84,20,5.75,SO,1648189597
428,jumla,29.2747,82.1838,65.05,16,0,6.58,NP,1648189598
429,boskoop,52.075,4.6556,43.02,82,0,2.3,NL,1648189599
430,fulton,33.7668,-84.4499,52.39,58,0,0.0,US,1648189600
431,rostovka,55.3842,71.8891,30.81,92,100,18.12,RU,1648189601
432,fort nelson,58.8053,-122.7002,13.59,57,20,5.75,CA,1648189602
433,labuhan,-6.8844,112.2051,86.14,67,100,6.67,ID,1648189602
434,laguna,38.421,-121.4238,66.18,74,0,8.05,US,1648189337
435,cairns,-16.9167,145.7667,85.95,66,100,12.66,AU,1648189304
436,xiashi,30.5363,120.6864,71.62,85,93,14.79,CN,1648189605
437,bodaybo,57.8506,114.1933,28.45,79,100,1.9,RU,1648189605
438,silver city,32.7701,-108.2803,55.69,21,0,5.01,US,1648189606
439,nador,35.174,-2.9287,57.45,77,20,9.22,MA,1648189607
440,atherton,53.5237,-2.4935,47.79,54,99,2.89,GB,1648189608
441,kyrksaeterora,63.2906,9.0891,45.19,96,100,29.17,NO,1648189609
442,okmulgee,35.6234,-95.9605,41.38,87,0,3.44,US,1648189610
443,garissa,-0.4536,39.6401,85.89,59,30,17.67,KE,1648189611
444,washington,47.5001,-120.5015,45.57,53,76,4.07,US,1648189500
445,kalaiya,27.0327,85.0022,97.03,10,0,2.62,NP,1648189517
446,aflao,6.116,1.1914,78.93,89,20,2.3,TG,1648189613
447,mount gambier,-37.8333,140.7667,69.71,49,75,11.5,AU,1648189614
448,ilanskiy,56.2358,96.065,27.09,88,100,7.83,RU,1648189614
449,neiafu,-18.65,-173.9833,81.28,83,100,6.91,TO,1648189615
450,maridi,4.9158,29.4742,84.27,26,14,6.4,SS,1648189616
451,erenhot,43.6475,111.9767,46.0,11,78,28.1,CN,1648189617
452,shimoni,-4.6476,39.3817,83.16,76,59,9.24,KE,1648189617
453,eyl,7.9803,49.8164,82.72,60,32,9.73,SO,1648189618
454,ust-ilimsk,58.0006,102.6619,28.83,77,100,6.78,RU,1648189619
455,sioux lookout,50.1001,-91.917,30.27,86,75,5.75,CA,1648189620
456,kulhudhuffushi,6.6221,73.07,82.58,62,8,6.26,MV,1648189620
457,krasnoselkup,65.7,82.4667,17.28,89,97,13.18,RU,1648189621
458,khorixas,-20.3667,14.9667,67.3,87,70,0.74,NA,1648189622
459,romitan,39.9343,64.3814,53.55,62,0,11.5,UZ,1648189623
460,guilin,25.2819,110.2864,77.11,99,100,0.65,CN,1648189623
461,parkes,-33.1333,148.1833,74.62,75,85,2.17,AU,1648189624
462,coromandel,-18.4733,-47.2003,66.4,80,36,3.13,BR,1648189625
463,terney,45.0503,136.6092,35.74,98,100,6.26,RU,1648189626
464,benalla,-36.55,145.9833,80.35,25,0,4.36,AU,1648189627
465,tecoanapa,16.5167,-98.75,74.79,78,53,4.0,MX,1648189627
466,souillac,-20.5167,57.5167,84.58,70,40,8.05,MU,1648189629
467,krasnyy chikoy,50.3643,108.7512,27.66,87,100,8.5,RU,1648189629
468,sawakin,19.1059,37.3321,70.88,55,9,15.61,SD,1648189630
469,deputatskiy,69.3,139.9,4.53,88,46,0.38,RU,1648189631
470,la foa,-21.7108,165.8276,79.25,76,72,11.32,NC,1648189632
471,fengkou,30.0833,113.2667,55.15,94,100,10.16,CN,1648189633
472,saint augustine,29.8947,-81.3145,61.09,95,100,5.75,US,1648189417
473,the valley,18.217,-63.0578,76.86,75,8,23.98,AI,1648189634
474,quelimane,-17.8786,36.8883,76.95,94,20,12.66,MZ,1648189635
475,severo-yeniseyskiy,60.3725,93.0408,24.89,71,100,3.47,RU,1648189635
476,hokitika,-42.7167,170.9667,65.16,72,2,11.23,NZ,1648189636
477,panalingaan,8.7842,117.4231,87.6,63,73,6.11,PH,1648189637
478,soplaviento,10.3931,-75.1408,78.73,76,56,0.89,CO,1648189638
479,ikeda,34.8221,135.4298,68.34,46,0,9.22,JP,1648189638
480,copacele,45.5,22.1,42.06,60,0,1.72,RO,1648189639
481,torredonjimeno,37.7675,-3.9578,56.32,62,100,8.99,ES,1648189640
482,telimele,10.9167,-13.3333,69.62,69,67,1.43,GN,1648189641
483,kurchum,48.5722,83.6542,26.47,80,49,1.32,KZ,1648189642
484,dublin,37.7021,-121.9358,54.68,87,0,5.75,US,1648189643
485,port keats,-14.25,129.55,90.37,55,49,6.71,AU,1648189644
486,fortuna,40.5982,-124.1573,49.66,95,100,0.0,US,1648189644
487,half moon bay,37.4636,-122.4286,54.28,90,100,12.66,US,1648189645
488,mosquera,4.7059,-74.2302,51.89,93,98,3.44,CO,1648189646
489,asosa,10.0667,34.5333,77.11,20,1,7.4,ET,1648189647
490,guerrero negro,27.9769,-114.0611,62.98,65,71,8.81,MX,1648189647
491,svetlyy,54.675,20.1347,45.97,82,20,9.22,RU,1648189648
492,mount pleasant,32.7941,-79.8626,55.54,96,100,4.61,US,1648189371
493,vao,-22.6667,167.4833,77.45,67,54,13.53,NC,1648189649
494,gaeta,41.2183,13.5628,47.73,89,0,2.39,IT,1648189650
495,marzuq,14.4,46.4667,79.84,41,34,2.06,YE,1648189651
496,pochutla,15.7432,-96.4661,75.81,79,48,2.55,MX,1648189652
497,chilca,-12.5211,-76.7372,68.9,86,18,3.36,PE,1648189652
498,wagar,16.1525,36.2032,71.87,53,5,15.41,SD,1648189653
499,gorgan,36.8387,54.4348,49.96,71,100,11.5,IR,1648189654
500,severo-kurilsk,50.6789,156.125,29.98,67,54,10.92,RU,1648189438
501,yambio,4.5721,28.3955,82.04,45,51,2.8,SS,1648189655
502,baruun-urt,46.6806,113.2792,35.65,24,52,10.83,MN,1648189656
503,ostrovnoy,68.0531,39.5131,21.92,81,100,34.02,RU,1648189657
504,cradock,-32.1642,25.6192,59.65,73,90,7.99,ZA,1648189657
505,magna,40.7091,-112.1016,56.88,50,40,5.75,US,1648189658
506,olafsvik,64.8945,-23.7142,26.98,93,100,27.27,IS,1648189659
507,talnakh,69.4865,88.3972,16.21,91,100,12.73,RU,1648189660
508,ahome,25.9167,-109.1833,63.0,52,17,5.28,MX,1648189660
509,bonavista,48.6499,-53.1147,28.08,75,47,25.66,CA,1648189661
510,maksatikha,57.797,35.8825,33.66,98,100,4.59,RU,1648189662
511,biu,10.6129,12.1946,72.41,27,97,11.88,NG,1648189663
512,boda,4.3189,17.4695,75.34,73,96,1.3,CF,1648189664
513,manta,-0.95,-80.7333,76.78,88,100,2.3,EC,1648189664
514,leningradskiy,69.3833,178.4167,-12.62,98,80,10.36,RU,1648189665
515,bikin,46.8161,134.26,34.38,99,100,6.08,RU,1648189666
516,itarema,-2.9248,-39.9167,75.58,91,62,6.67,BR,1648189667
517,amga,60.8953,131.9608,29.43,84,100,2.66,RU,1648189667
518,basco,20.4487,121.9702,79.77,86,53,16.55,PH,1648189668
519,pavlodar,52.3,76.95,24.6,80,0,8.95,KZ,1648189669
520,dunedin,-45.8742,170.5036,58.8,74,2,4.0,NZ,1648189670
521,kundgol,15.25,75.25,86.2,36,90,2.98,IN,1648189671
522,sile,41.1754,29.6133,48.56,50,26,5.01,TR,1648189671
523,muncar,-8.4333,114.3333,85.82,69,67,4.79,ID,1648189672
524,bogotol,56.2078,89.5342,25.68,83,98,14.41,RU,1648189673
525,imeni poliny osipenko,52.4201,136.4853,29.8,80,100,2.15,RU,1648189673
526,panaba,21.2833,-88.2667,70.32,70,96,10.49,MX,1648189674
527,dudinka,69.4058,86.1778,16.63,90,99,17.69,RU,1648189675
528,mahon,39.8885,4.2658,55.96,88,100,16.11,ES,1648189676
529,lagoa,39.05,-27.9833,60.01,88,100,32.39,PT,1648189677
530,dukat,62.55,155.55,9.1,86,99,3.69,RU,1648189678
531,saint-augustin,51.226,-58.6502,12.06,94,100,4.92,CA,1648189678
532,ewa beach,21.3156,-158.0072,75.15,67,75,9.22,US,1648189680
533,kargasok,59.0556,80.8572,27.16,86,100,13.89,RU,1648189681
534,morros,-9.4467,-46.3003,72.39,84,85,2.64,BR,1648189682
535,toora-khem,52.4675,96.11,25.93,70,98,5.37,RU,1648189682
536,koshurnikovo,54.1667,93.3,27.16,85,100,10.85,RU,1648189683
537,oktyabrskoye,43.0645,44.7417,35.74,86,75,8.95,RU,1648189684
538,port-gentil,-0.7193,8.7815,80.56,94,40,4.61,GA,1648189685
539,shelburne,44.0787,-80.2041,38.23,97,78,10.96,CA,1648189685
540,selma,36.5708,-119.6121,73.45,59,2,3.83,US,1648189686
541,komsomolskiy,40.4272,71.7189,48.92,61,18,4.61,UZ,1648189687
542,sydney,-33.8679,151.2073,71.58,85,95,5.01,AU,1648189517
543,rovaniemi,66.5,25.7167,24.21,93,100,9.22,FI,1648189689
544,quatre cocos,-20.2078,57.7625,86.09,66,39,9.69,MU,1648189689
545,haines junction,60.7522,-137.5108,30.15,69,100,1.14,CA,1648189690
546,toamasina,-18.1667,49.3833,86.0,74,40,3.44,MG,1648189691
547,valparaiso,-33.0393,-71.6273,61.48,60,0,4.61,CL,1648189630
548,sobolevo,54.4299,31.8996,30.56,100,90,3.44,RU,1648189692
549,aleksin,54.51,37.08,36.43,99,58,2.86,RU,1648189693
